 [
  {
  "address": "2021 E. Jones Avenue,Phoenix,AZ 85040",
  "name": "Phoenix, AZ",
  "lat": "33.409538",
  "lng": "-112.037399",
  "manager": "Tim Moder",
  "displaycity": "Phoenix",
  "title": "Terminal Manager",
  "phone": "602-455-3738",
  "manager2": "",
  "title2": "",
  "phone2": "",
  "manager3": "",
  "title3": "",
  "phone3": "",
  "distance": "614.33937354363"
  },
  {
  "address": "295 Rye Street, South Windsor, CT 06074",
  "name": "South Windsor, CT",
  "lat": "41.859806",
  "lng": "-72.582916",
  "manager": "",
  "displaycity": "South Windsor",
  "title": "",
  "phone": "",
  "manager2": "",
  "title2": "",
  "phone2": "",
  "manager3": "",
  "title3": "",
  "phone3": "",
  "distance": "2622.25069689459"
  },
  {
  "address": "13470 International Parkway,Jacksonville,FL 32218",
  "name": "Jacksonville, FL",
  "lat": "30.481007",
  "lng": "-81.661903",
  "manager": "Maxine Hanson",
  "displaycity": "Jacksonville",
  "title": "Terminal Manager",
  "phone": "904-741-4057",
  "manager2": "",
  "title2": "",
  "phone2": "",
  "manager3": "",
  "title3": "",
  "phone3": "",
  "distance": "2343.26321305249"
  },
  {
  "address": "801 Interstate West Parkway,Lithia Springs,GA 30122",
  "name": "Lithia Springs, GA",
  "lat": "33.772011",
  "lng": "-84.600006",
  "manager": "Rodney Baxter",
  "displaycity": "Atlanta",
  "title": "Assistant Terminal Manager",
  "phone": "331-333-2829",
  "manager2": "",
  "title2": "",
  "phone2": "",
  "manager3": "",
  "title3": "",
  "phone3": "",
  "distance": "2105.1182044175"
  },
  {
  "address": "1200 North Kirk,Batavia,IL 60510",
  "name": "Batavia, IL",
  "lat": "41.860638",
  "lng": "-88.275139",
  "manager": "Tim Johnson",
  "displaycity": "Batavia",
  "title": "Terminal Manager",
  "phone": "630-879-6410",
  "manager2": "",
  "title2": "",
  "phone2": "",
  "manager3": "",
  "title3": "",
  "phone3": "",
  "distance": "1818.87067439861"
  },
  {
  "address": "150 Village Court,Carol Stream,Il 60188",
  "name": "Carol Stream, IL",
  "lat": "41.913410",
  "lng": "-88.118843",
  "manager": "Marc Incrocci",
  "displaycity": "Carol Stream",
  "title": "Terminal Manager",
  "phone": "630-580-5171",
  "manager2": "",
  "title2": "",
  "phone2": "",
  "manager3": "",
  "title3": "",
  "phone3": "",
  "distance": "1826.86952375477"
  },
  {
  "address": "1 Aldi Drive,Dwight,Il 60420",
  "name": "Dwight, IL",
  "lat": "41.115147",
  "lng": "-88.406662",
  "manager": "Tad Buckley",
  "displaycity": "Dwight",
  "title": "Terminal Manager",
  "phone": "815-584-9610",
  "manager2": "",
  "title2": "",
  "phone2": "",
  "manager3": "",
  "title3": "",
  "phone3": "",
  "distance": "1813.28112885641"
  },
  {
  "address": "200 Internationale Parkway South,Minooka,Il 60447",
  "name": "Minooka, IL",
  "lat": "41.457497",
  "lng": "-88.302818",
  "manager": "John Garretson",
  "displaycity": "Minooka",
  "title": "Area Manager",
  "phone": "",
  "manager2": "Joe Fricano",
  "title2": "Terminal Manager",
  "phone2": "815-467-2107",
  "manager3": "",
  "title3": "",
  "phone3": "",
  "distance": "1817.94705762352"
  },
  {
  "address": "16345 Frontage Rd,Oak Forest,Il 60452",
  "name": "Oak Forest, IL",
  "lat": "41.595158",
  "lng": "-87.716911",
  "manager": "Dan Jones",
  "displaycity": "Oak Forest",
  "title": "Terminal Manager",
  "phone": "708-535-9961",
  "manager2": "",
  "title2": "",
  "phone2": "",
  "manager3": "",
  "title3": "",
  "phone3": "",
  "distance": "1847.99982746675"
  },
  {
  "address": "900 Bilter Road, Aurora, IL  60503",
  "name": "Aurora, IL",
  "lat": "41.806564",
  "lng": "-88.284935",
  "manager": "Erik Arana",
  "displaycity": "Aurora",
  "title": "Terminal Manager",
  "phone": "630-896-5204",
  "manager2": "",
  "title2": "",
  "phone2": "",
  "manager3": "",
  "title3": "",
  "phone3": "",
  "distance": "1818.41148044428"
  },
  {
  "address": "307 Melton Road,Chesterton,IN 46304",
  "name": "Chesterton, IN",
  "lat": "41.601189",
  "lng": "-87.126648",
  "manager": "Todd Fulk",
  "displaycity": "Portage",
  "title": "Terminal Manager",
  "phone": "219-841-9113",
  "manager2": "",
  "title2": "",
  "phone2": "",
  "manager3": "",
  "title3": "",
  "phone3": "",
  "distance": "1878.47425974362"
  },
  {
  "address": "4304 West Morris Street, Indianapolis, IN  46241",
  "name": "Indianapolis, IN ",
  "lat": "39.750702",
  "lng": "-86.233063",
  "manager": "Ed Burgess",
  "displaycity": "Indianapolis",
  "title": "Terminal Manager",
  "phone": "317-247-5330",
  "manager2": "",
  "title2": "",
  "phone2": "",
  "manager3": "",
  "title3": "",
  "phone3": "",
  "distance": "1933.91301123339"
  },
  {
  "address": "15000B Highway 41 North,Evansville,IN 47725",
  "name": "Evansville, IN",
  "lat": "38.114407",
  "lng": "-87.557198",
  "manager": "Shonna Southwell",
  "displaycity": "Evansville",
  "title": "Terminal Manager",
  "phone": "812-867-3263",
  "manager2": "",
  "title2": "",
  "phone2": "",
  "manager3": "",
  "title3": "",
  "phone3": "",
  "distance": "1877.38196760515"
  },
  {
  "address": "3899 Produce Road Ste 115,Louisville,KY 40218",
  "name": "Louisville, KY",
  "lat": "38.181801",
  "lng": "-85.690826",
  "manager": "Steve Prusa",
  "displaycity": "Louisville",
  "title": "Terminal Manager",
  "phone": "708-478-6020 x19",
  "manager2": "John Garretson",
  "title2": "Area Manager",
  "phone2": "815-467-2107",
  "manager3": "",
  "title3": "",
  "phone3": "",
  "distance": "1976.91543395931"
  },
  {
  "address": "8751 Gas House Pike,Frederick,MD 21701",
  "name": "Frederick, MD",
  "lat": "39.434425",
  "lng": "-77.363884",
  "manager": "Joseph Brodnan",
  "displaycity": "Frederick",
  "title": "Terminal Manager",
  "phone": "301-698-0611",
  "manager2": "",
  "title2": "",
  "phone2": "",
  "manager3": "",
  "title3": "",
  "phone3": "",
  "distance": "2404.2848214314"
  },
  {
  "address": "45911 Port St., Plymouth, MI  48170",
  "name": "Plymouth, MI ",
  "lat": "42.386742",
  "lng": "-83.496742",
  "manager": "Paul Korbal",
  "displaycity": "Plymouth",
  "title": "Terminal Manager",
  "phone": "630-299-9956",
  "manager2": "",
  "title2": "",
  "phone2": "",
  "manager3": "",
  "title3": "",
  "phone3": "",
  "distance": "2062.59449243849"
  },
  {
  "address": "325 Blake Road North,Hopkins, MN 55343",
  "name": "Hopkins, MN",
  "lat": "44.930126",
  "lng": "-93.383827",
  "manager": "Nikolai Shpak",
  "displaycity": "Hopkins",
  "title": "Terminal Manager",
  "phone": "952-294-2170",
  "manager2": "",
  "title2": "",
  "phone2": "",
  "manager3": "",
  "title3": "",
  "phone3": "",
  "distance": "1580.44400555586"
  },
  {
  "address": "4201 Bagley Avenue,Faribault,MN 55021",
  "name": "Faribault, MN",
  "lat": "44.337662",
  "lng": "-93.297729",
  "manager": "Larry Eccles",
  "displaycity": "Faribault",
  "title": "Area Manager",
  "phone": "",
  "manager2": "Phil James",
  "title2": "Terminal Manager",
  "phone2": "507-334-5005",
  "manager3": "",
  "title3": "",
  "phone3": "",
  "distance": "1577.86244112941"
  },
  {
  "address": "300 State Route 281,Tully,NY 13159",
  "name": "Tully, NY",
  "lat": "42.790787",
  "lng": "-76.120995",
  "manager": "John Cushner",
  "displaycity": "Tully",
  "title": "Terminal Manager",
  "phone": "315-696-2435",
  "manager2": "",
  "title2": "",
  "phone2": "",
  "manager3": "",
  "title3": "",
  "phone3": "",
  "distance": "2434.36426378364"
  },
  {
  "address": "1319 W 130th Street,Hinckley,OH 44233",
  "name": "Hinckley, OH",
  "lat": "41.242638",
  "lng": "-81.781799",
  "manager": "Gary Dimit",
  "displaycity": "Hinckley",
  "title": "Terminal Manager",
  "phone": "330-225-2250",
  "manager2": "",
  "title2": "",
  "phone2": "",
  "manager3": "",
  "title3": "",
  "phone3": "",
  "distance": "2156.3903781484"
  },
  {
  "address": "3500 Southwest Blvd,Grove City,OH 43123",
  "name": "Grove City, OH",
  "lat": "39.894703",
  "lng": "-83.096420",
  "manager": "Donald Billups",
  "displaycity": "Grove City",
  "title": "Terminal Manager",
  "phone": "614-871-6616",
  "manager2": "",
  "title2": "",
  "phone2": "",
  "manager3": "",
  "title3": "",
  "phone3": "",
  "distance": "2098.15059507337"
  },
  {
  "address": "2700 Saucon Valley Road,Center Valley,PA 18034",
  "name": "Center Valley, PA",
  "lat": "40.554050",
  "lng": "-75.400238",
  "manager": "Scott Smith",
  "displaycity": "Center Valley",
  "title": "Terminal Manager",
  "phone": "610-798-9418",
  "manager2": "",
  "title2": "",
  "phone2": "",
  "manager3": "",
  "title3": "",
  "phone3": "",
  "distance": "2492.9835150525"
  },
  {
  "address": "1530 Fruitville Pike,Lancaster,PA 17601",
  "name": "Lancaster, PA",
  "lat": "40.061436",
  "lng": "-76.315590",
  "manager": "Bob Hipple",
  "displaycity": "Lancaster",
  "title": "Terminal Manager",
  "phone": "717-394-2980",
  "manager2": "",
  "title2": "",
  "phone2": "",
  "manager3": "",
  "title3": "",
  "phone3": "",
  "distance": "2451.35587969314"
  },
  {
  "address": "9751 Blue Grass Road,Philadelphia,PA 19114",
  "name": "Philadelphia, PA",
  "lat": "40.079838",
  "lng": "-75.022720",
  "manager": "Glenn Giglio",
  "displaycity": "Philadelphia",
  "title": "Terminal Manager",
  "phone": "215-676-7191 Ext. 10",
  "manager2": "",
  "title2": "",
  "phone2": "",
  "manager3": "",
  "title3": "",
  "phone3": "",
  "distance": "2518.37682807228"
  },
  {
  "address": "6000 N. Noah Drive,Saxonburg,PA 16056",
  "name": "Saxonburg, PA",
  "lat": "40.753956",
  "lng": "-79.810051",
  "manager": "Gary Schuster",
  "displaycity": "Saxonburg",
  "title": "Terminal Manager",
  "phone": "724-352-1110",
  "manager2": "",
  "title2": "",
  "phone2": "",
  "manager3": "",
  "title3": "",
  "phone3": "",
  "distance": "2262.37472143608"
  },
  {
  "address": "120 Intermodal Parkway, Fort Worth, TX 76177",
  "name": "Fort Worth, TX",
  "lat": "32.978298",
  "lng": "-97.327728",
  "manager": "Suzzette Schroeder",
  "displaycity": "Forth Worth",
  "title": "Terminal Manager",
  "phone": "817-230-2316",
  "manager2": "",
  "title2": "",
  "phone2": "",
  "manager3": "",
  "title3": "",
  "phone3": "",
  "distance": "1419.8292611488"
  },
  {
  "address": "4400 Regent Blvd Irving, TX  75063",
  "name": "Irving, TX",
  "lat": "32.927334",
  "lng": "-97.006783",
  "manager": "Greg Williams",
  "displaycity": "Irving",
  "title": "Terminal Manager",
  "phone": "",
  "manager2": "",
  "title2": "",
  "phone2": "",
  "manager3": "",
  "title3": "",
  "phone3": "",
  "distance": "1438.60383928286"
  },
  {
  "address": "11589 88th Avenue,Pleasant Prairie,WI 53158",
  "name": "Pleasant Prairie, WI",
  "lat": "42.510365",
  "lng": "-87.910858",
  "manager": "Michael Hade",
  "displaycity": "Pleasant Prairie",
  "title": "Terminal Manager",
  "phone": "262-577-2046",
  "manager2": "",
  "title2": "",
  "phone2": "",
  "manager3": "",
  "title3": "",
  "phone3": "",
  "distance": "1837.43750972203"
  },
  {
  "address": "5521 88th Avenue,Kenosha,WI 53144",
  "name": "Kenosha, WI",
  "lat": "42.586147",
  "lng": "-87.914803",
  "manager": "Roger Prahl",
  "displaycity": "Kenosha",
  "title": "Terminal Manager",
  "phone": "262-658-2550",
  "manager2": "",
  "title2": "",
  "phone2": "",
  "manager3": "",
  "title3": "",
  "phone3": "",
  "distance": "1837.28231221359"
  },
  {
  "address": "9342 South 13th Street,Oak Creek,WI 53154",
  "name": "Oak Creek,WI",
  "lat": "42.875534",
  "lng": "-87.932220",
  "manager": "Larry Fields",
  "displaycity": "Oak Creek",
  "title": "Terminal Manager",
  "phone": "414-762-9513",
  "manager2": "",
  "title2": "",
  "phone2": "",
  "manager3": "",
  "title3": "",
  "phone3": "",
  "distance": "1836.70232120678"
  }
  ]